{"type":"FeatureCollection","features":[{"type":"Feature","properties":{"date":"1910","geoNamesUri":"http://sws.geonames.org/3169070/","nbMentions":"7","name":"Rome","lineNumber":"200"},"geometry":{"type":"Point","coordinates":[12.51133,41.89193]}},{"type":"Feature","properties":{"date":"1910","geoNamesUri":"http://sws.geonames.org/2993458/","nbMentions":"2","name":"Monaco","lineNumber":"200"},"geometry":{"type":"Point","coordinates":[7.41667,43.73333]}},{"type":"Feature","properties":{"date":"1910","geoNamesUri":"http://sws.geonames.org/2759794/","nbMentions":"2","name":"Amsterdam","lineNumber":"200"},"geometry":{"type":"Point","coordinates":[4.88969,52.37403]}},{"type":"Feature","properties":{"date":"1910","geoNamesUri":"http://sws.geonames.org/2950159/","nbMentions":"4","name":"Berlin","lineNumber":"200"},"geometry":{"type":"Point","coordinates":[13.41053,52.52437]}},{"type":"Feature","properties":{"date":"1910","geoNamesUri":"http://sws.geonames.org/3023519/","nbMentions":"1","name":"Corse","lineNumber":"200"},"geometry":{"type":"Point","coordinates":[9.0,42.0]}},{"type":"Feature","properties":{"date":"1910","geoNamesUri":"http://sws.geonames.org/2988507/","nbMentions":"19","name":"Paris","lineNumber":"200"},"geometry":{"type":"Point","coordinates":[2.3488,48.85341]}},{"type":"Feature","properties":{"date":"1910","geoNamesUri":"http://sws.geonames.org/3191281/","nbMentions":"1","name":"Sarajevo","lineNumber":"200"},"geometry":{"type":"Point","coordinates":[18.35644,43.84864]}},{"type":"Feature","properties":{"date":"1910","geoNamesUri":"http://sws.geonames.org/3067696/","nbMentions":"8","name":"Prague","lineNumber":"200"},"geometry":{"type":"Point","coordinates":[14.42076,50.08804]}}]}
